{
    "type": "FeatureCollection",
    "totalFeatures": 98,
    "features": [
      {
        "type": "Feature",
        "id": "priv_hos.1",
        "geometry": {
          "type": "Point",
          "coordinates": [668716.1773865, 1536564.325576]
        },
        "geometry_name": "the_geom",
        "properties": {
          "name": "โรงพยาบาลมงกุฏวัฒนะ",
          "address": "34/40 หมู่1 ถนนแจ้งวัฒนะ แขวงทุ่งสองห้อง เขตหลักสี่ กรุงเทพฯ10220",
          "dcode": "1041",
          "tel": "02-574-5000",
          "num_bed": 100
        }
      },
      {
        "type": "Feature",
        "id": "priv_hos.2",
        "geometry": {
          "type": "Point",
          "coordinates": [673626.119245893, 1536044.44852901]
        },
        "geometry_name": "the_geom",
        "properties": {
          "name": "โรงพยาบาลเซ็นทรัล เยอเนรัล",
          "address": "362/114 หมูุ่8 พหลโยธิน แขวงอนุสาวรีย์ บางเขน กรุงเทพฯ10220",
          "dcode": "1005",
          "tel": "02-552-8777",
          "num_bed": 200
        }
      },
      {
        "type": "Feature",
        "id": "priv_hos.3",
        "geometry": {
          "type": "Point",
          "coordinates": [668875.220203474, 1531272.5942539]
        },
        "geometry_name": "the_geom",
        "properties": {
          "name": "โรงพยาบาลวิภาวดี",
          "address": "51/3 ถนนงามวงศ์วาน แขวงลาดยาว จตุจักร กรุงเทพฯ10900",
          "dcode": "1030",
          "tel": "02-941-2800",
          "num_bed": 230
        }
      },
      {
        "type": "Feature",
        "id": "priv_hos.4",
        "geometry": {
          "type": "Point",
          "coordinates": [670145.359928762, 1530082.81582613]
        },
        "geometry_name": "the_geom",
        "properties": {
          "name": "โรงพยาบาล เมโย",
          "address": "2012/4-9,2014 พหลโยธิน เสนานิคม แขวงจตุจักร กรุงเทพฯ 10900",
          "dcode": "1030",
          "tel": "02-579-1770-4",
          "num_bed": 162
        }
      },
      {
        "type": "Feature",
        "id": "priv_hos.5",
        "geometry": {
          "type": "Point",
          "coordinates": [680124.410166242, 1530023.65134403]
        },
        "geometry_name": "the_geom",
        "properties": {
          "name": "โรงพยาบาลสินแพทย์",
          "address": "9/99 ถนนรามอินทรา แขวงคันนายาว กรุงเทพฯ",
          "dcode": "1043",
          "tel": "02-948-5380",
          "num_bed": 287
        }
      },
      {
        "type": "Feature",
        "id": "priv_hos.6",
        "geometry": {
          "type": "Point",
          "coordinates": [664635.01217146, 1526918.34992991]
        },
        "geometry_name": "the_geom",
        "properties": {
          "name": "โรงพยาบาลบางโพ",
          "address": "95 แครีเบลล์ ประชาราษฎร์ สาย2 บางซื่อ เขตบางซื่อ กรุงเทพฯ10800",
          "dcode": "1029",
          "tel": "02-587-0144",
          "num_bed": 100
        }
      },
      {
        "type": "Feature",
        "id": "priv_hos.7",
        "geometry": {
          "type": "Point",
          "coordinates": [672534.445590905, 1526351.31744318]
        },
        "geometry_name": "the_geom",
        "properties": {
          "name": "โรงพยาบาลเปาโล เมโมเรียล โชคชัย 4",
          "address": "1 โชคชัย 4 ลาดพร้าว แขวงลาดพร้าว กรุงเทพฯ10230",
          "dcode": "1038",
          "tel": "02-5142157-9",
          "num_bed": 120
        }
      },
      {
        "type": "Feature",
        "id": "priv_hos.8",
        "geometry": {
          "type": "Point",
          "coordinates": [667624.566410922, 1525280.47893127]
        },
        "geometry_name": "the_geom",
        "properties": {
          "name": "โรงพยาบาลเปาโลเมโมเรียล นวมินทร์ เดิม)",
          "address": "670/1 ถนนพหลโยธิน แขวงสามเสนใน กรุงเทพฯ",
          "dcode": "1014",
          "tel": "02-2797000",
          "num_bed": 140
        }
      },
      {
        "type": "Feature",
        "id": "priv_hos.9",
        "geometry": {
          "type": "Point",
          "coordinates": [668880.914334131, 1525073.74986079]
        },
        "geometry_name": "the_geom",
        "properties": {
          "name": "สถานพยาบาลผู้ป่วยเรื้อรังสุทธิสาร",
          "address": "10/9 อินทามระ33 ถนนสุทธิสาร วินิจฉัย ดินแดง กรุงเทพฯ10400",
          "dcode": "1026",
          "tel": "02-275-6351-5",
          "num_bed": 25
        }
      },
      {
        "type": "Feature",
        "id": "priv_hos.10",
        "geometry": {
          "type": "Point",
          "coordinates": [651425.969269014, 1524169.04589253]
        },
        "geometry_name": "the_geom",
        "properties": {
          "name": "โรงพยาบาลธนบุรี 2",
          "address": "43/4 หมู่18 ถนนบรมราชชนนี แขวงศาลาธรรมสพน์ ทวีวัฒนา กรุงเทพฯ10170",
          "dcode": "1048",
          "tel": "02-448-3845",
          "num_bed": 95
        }
      },
      {
        "type": "Feature",
        "id": "priv_hos.11",
        "geometry": {
          "type": "Point",
          "coordinates": [665663.402181662, 1523943.83036173]
        },
        "geometry_name": "the_geom",
        "properties": {
          "name": "สถานพยาบาลผู้ป่วยเรื้อรัง วิชัยยุทธ",
          "address": "114/4 ถนนเศรษฐศิริ สามเสนใน แขวงพญาไท กรุงเทพฯ",
          "dcode": "1014",
          "tel": "02-618-6200",
          "num_bed": 114
        }
      },
      {
        "type": "Feature",
        "id": "priv_hos.12",
        "geometry": {
          "type": "Point",
          "coordinates": [658972.209627983, 1523903.54471379]
        },
        "geometry_name": "the_geom",
        "properties": {
          "name": "โรงพยาบาลเจ้าพระยา",
          "address": "113/44 รุ่งประชา บรมราชชนนี แขวงบางกอกน้อย กรุงเทพฯ10700",
          "dcode": "1020",
          "tel": "02-434-0117",
          "num_bed": 200
        }
      },
      {
        "type": "Feature",
        "id": "priv_hos.13",
        "geometry": {
          "type": "Point",
          "coordinates": [676968.303594361, 1523106.33720076]
        },
        "geometry_name": "the_geom",
        "properties": {
          "name": "โรงพยาบาลเวชธานี",
          "address": "1 ลาดพร้าว 111 ลาดพร้าว แขวงคลองจั่น บางกะปิ กรุงเทพฯ10240",
          "dcode": "1006",
          "tel": "02-734-0000",
          "num_bed": 263
        }
      },
      {
        "type": "Feature",
        "id": "priv_hos.14",
        "geometry": {
          "type": "Point",
          "coordinates": [666535.611578252, 1522817.43023148]
        },
        "geometry_name": "the_geom",
        "properties": {
          "name": "โรงพยาบาลพญาไท 2",
          "address": "943/943/1 พหลโยธิน สามเสนใน พญาไท กรุงเทพฯ",
          "dcode": "1014",
          "tel": "02-6172444",
          "num_bed": 260
        }
      },
      {
        "type": "Feature",
        "id": "priv_hos.15",
        "geometry": {
          "type": "Point",
          "coordinates": [676896.497098513, 1521872.27024774]
        },
        "geometry_name": "the_geom",
        "properties": {
          "name": "โรงพยาบาลรามคำแหง",
          "address": "436 ถนนรามคำแหง หัวหมาก แขวงบางกะปิ กรุงเทพฯ10240",
          "dcode": "1006",
          "tel": "02-374-020016",
          "num_bed": 486
        }
      },
      {
        "type": "Feature",
        "id": "priv_hos.16",
        "geometry": {
          "type": "Point",
          "coordinates": [664238.100965709, 1521511.08676083]
        },
        "geometry_name": "the_geom",
        "properties": {
          "name": "โรงพยาบาลมิชชั่น",
          "address": "430 ถนนพิษณุโลก สี่แยกมหานาคแขวงดุสิต กรุงเทพฯ10300",
          "dcode": "1002",
          "tel": "02-282-1100",
          "num_bed": 200
        }
      },
      {
        "type": "Feature",
        "id": "priv_hos.17",
        "geometry": {
          "type": "Point",
          "coordinates": [666023.299614567, 1521357.67823825]
        },
        "geometry_name": "the_geom",
        "properties": {
          "name": "โรงพยาบาลเดชา",
          "address": "396 ศรีอยุธยา ถนนพญาไท แขวงราชเทวี กรุงเทพฯ1044",
          "dcode": "1037",
          "tel": "02-246-0137",
          "num_bed": 100
        }
      },
      {
        "type": "Feature",
        "id": "priv_hos.18",
        "geometry": {
          "type": "Point",
          "coordinates": [666392.925061081, 1521298.67845006]
        },
        "geometry_name": "the_geom",
        "properties": {
          "name": "โรงพยาบาลพญาไท 1",
          "address": "364/1 ศรีอยุธยา ถนนพญาไท แขวงราชเทวี กรุงเทพฯ10400",
          "dcode": "1037",
          "tel": "02-640-1111",
          "num_bed": 350
        }
      },
      {
        "type": "Feature",
        "id": "priv_hos.19",
        "geometry": {
          "type": "Point",
          "coordinates": [669807.782934474, 1520990.19068685]
        },
        "geometry_name": "the_geom",
        "properties": {
          "name": "โรงพยาบาลพระราม 9",
          "address": "99 ซอยแสงแจ่ม ถนนพระราม 9 บางกะปิ ห้วยขวาง กรุงเทพฯ",
          "dcode": "1017",
          "tel": "02-248-8020",
          "num_bed": 160
        }
      },
      {
        "type": "Feature",
        "id": "priv_hos.20",
        "geometry": {
          "type": "Point",
          "coordinates": [670832.545385012, 1521043.55571648]
        },
        "geometry_name": "the_geom",
        "properties": {
          "name": "โรงพยาบาลปิยะเวท",
          "address": "998 ริมคลองสามเสน บางกะปิ ห้วยขวาง กรุงเทพฯ10310",
          "dcode": "1017",
          "tel": "02-641-4499",
          "num_bed": 150
        }
      },
      {
        "type": "Feature",
        "id": "priv_hos.21",
        "geometry": {
          "type": "Point",
          "coordinates": [660003.668404482, 1520872.42327469]
        },
        "geometry_name": "the_geom",
        "properties": {
          "name": "โรงพยาบาลธนบุรี",
          "address": "34/1 ถนนแสงศึกษา อิสระภาพซอย4 แขวงบ้านช่างหล่อ บางกอกน้อย กรุงเทพฯ10700",
          "dcode": "1020",
          "tel": "02-412-0020",
          "num_bed": 435
        }
      },
      {
        "type": "Feature",
        "id": "priv_hos.22",
        "geometry": {
          "type": "Point",
          "coordinates": [663844.719518587, 1520607.64480362]
        },
        "geometry_name": "the_geom",
        "properties": {
          "name": "โรงพยาบาลหัวเฉียว",
          "address": "665 บำรุงเมือง คลองมหานาค ป้อมปราบศัตรูพ่าย กรุงเทพฯ",
          "dcode": "1008",
          "tel": "02-223-1351",
          "num_bed": 338
        }
      },
      {
        "type": "Feature",
        "id": "priv_hos.23",
        "geometry": {
          "type": "Point",
          "coordinates": [671198.060149859, 1520485.11321155]
        },
        "geometry_name": "the_geom",
        "properties": {
          "name": "โรงพยาบาลกรุงเทพ",
          "address": "2 ศูนย์วิจัย7 ถนนเพชรบุรีตัดใหม่ บางกะปิ ห้วยขวาง กรุงเทพฯ",
          "dcode": "1017",
          "tel": "02-310-3000",
          "num_bed": 403
        }
      },
      {
        "type": "Feature",
        "id": "priv_hos.24",
        "geometry": {
          "type": "Point",
          "coordinates": [669003.366204874, 1520243.05425529]
        },
        "geometry_name": "the_geom",
        "properties": {
          "name": "โรงพยาบาลจักษุรัตนิน",
          "address": "80-80/1ซอยอโศก สุขุมวิท21 คลองเตยเหนือ วัฒนา กรุงเทพฯ10110",
          "dcode": "1039",
          "tel": "02-258-0442",
          "num_bed": 31
        }
      },
      {
        "type": "Feature",
        "id": "priv_hos.25",
        "geometry": {
          "type": "Point",
          "coordinates": [667844.699260114, 1520209.86283806]
        },
        "geometry_name": "the_geom",
        "properties": {
          "name": "โรงพยาบาลบำรุงราษฎร์",
          "address": "33 สุขุมวิท แขวงพระโขนงเหนือ เขตวัฒนา กรุงเทพฯ10110",
          "dcode": "1039",
          "tel": "02-667-1000",
          "num_bed": 538
        }
      },
      {
        "type": "Feature",
        "id": "priv_hos.26",
        "geometry": {
          "type": "Point",
          "coordinates": [673788.465509878, 1519982.80383409]
        },
        "geometry_name": "the_geom",
        "properties": {
          "name": "โรงพยาบาลแพทย์ปัญญา",
          "address": "124-126 ซอยสมานมิตร  ถนนรามคำแหง แขวงสวนหลวง เขตสวนหลวง กรุงเทพฯ",
          "dcode": "1034",
          "tel": "02-314-0726-9",
          "num_bed": 109
        }
      },
      {
        "type": "Feature",
        "id": "priv_hos.27",
        "geometry": {
          "type": "Point",
          "coordinates": [672429.364041278, 1519873.08143905]
        },
        "geometry_name": "the_geom",
        "properties": {
          "name": "โรงพยาบาล เพชรเวช",
          "address": "2469/13,1 ถนนเพชรบุรีตัดใหม่ ห้วยขวาง กรุงเทพฯ10320",
          "dcode": "1017",
          "tel": "02-718-1515",
          "num_bed": 200
        }
      },
      {
        "type": "Feature",
        "id": "priv_hos.28",
        "geometry": {
          "type": "Point",
          "coordinates": [672391.568052673, 1519752.49824796]
        },
        "geometry_name": "the_geom",
        "properties": {
          "name": "โรงพยาบาลคลองตัน",
          "address": "3284 เพชรบุรีตัดใหม่ บางกะปิ ห้วยขวาง กรุงเทพฯ10320",
          "dcode": "1017",
          "tel": "02-319-2101-5",
          "num_bed": 32
        }
      },
      {
        "type": "Feature",
        "id": "priv_hos.29",
        "geometry": {
          "type": "Point",
          "coordinates": [663372.22293965, 1519740.18711027]
        },
        "geometry_name": "the_geom",
        "properties": {
          "name": "โรงพยาบาลกว๋องสิวมูลนิธิ",
          "address": "513-515 เจริญกรุง ป้อมปราบ แขวงป้อมปราบศัตรูพ่าย กรุงเทพฯ",
          "dcode": "1008",
          "tel": "02-221-8487",
          "num_bed": 50
        }
      },
      {
        "type": "Feature",
        "id": "priv_hos.30",
        "geometry": {
          "type": "Point",
          "coordinates": [671239.251167567, 1519460.27696736]
        },
        "geometry_name": "the_geom",
        "properties": {
          "name": "โรงพยาบาลคามิลเลียน",
          "address": "423 ซอยทองหล่อ สุขุมวิท 55 แขวงทวีวัฒนา กรุงเทพฯ10110",
          "dcode": "1039",
          "tel": "02-391-5724",
          "num_bed": 150
        }
      },
      {
        "type": "Feature",
        "id": "priv_hos.31",
        "geometry": {
          "type": "Point",
          "coordinates": [663468.743012802, 1519278.94182553]
        },
        "geometry_name": "the_geom",
        "properties": {
          "name": "โรงพยาบาลเทียนฟ้ามูลนิธิ(แผนปัจจุบัน)",
          "address": "606 ถนนเยาวราช แขวงสัมพันธวงศ์ เขตสัมพันธวงศ์ กรุงเทพฯ",
          "dcode": "1013",
          "tel": "02-233-0955",
          "num_bed": 60
        }
      },
      {
        "type": "Feature",
        "id": "priv_hos.32",
        "geometry": {
          "type": "Point",
          "coordinates": [670447.708314476, 1519020.38430851]
        },
        "geometry_name": "the_geom",
        "properties": {
          "name": "โรงพยาบาลสมิติเวช",
          "address": "133 สุขุมวิท 49 แขวงคลองตันเหนือ เขตวัฒนากรุงเทพฯ10110",
          "dcode": "1039",
          "tel": "02-392-0011",
          "num_bed": 275
        }
      },
      {
        "type": "Feature",
        "id": "priv_hos.33",
        "geometry": {
          "type": "Point",
          "coordinates": [661689.796962438, 1518517.1718726]
        },
        "geometry_name": "the_geom",
        "properties": {
          "name": "โรงพยาบาลนันอา",
          "address": "323ถ.ประชาธิปก แขวงสมเด็จเจ้าพระยา คลองสาน กรุงเทพฯ10230",
          "dcode": "1018",
          "tel": "02-948-5380",
          "num_bed": 30
        }
      },
      {
        "type": "Feature",
        "id": "priv_hos.34",
        "geometry": {
          "type": "Point",
          "coordinates": [665576.221424564, 1518195.31213569]
        },
        "geometry_name": "the_geom",
        "properties": {
          "name": "โรงพยาบาลกรุงเทพคริสเตียน",
          "address": "124 ถนนสีลม สุริยวงศ์  แขวงบางรัก กรุงเทพฯ",
          "dcode": "1004",
          "tel": "02- 233-6819",
          "num_bed": 198
        }
      },
      {
        "type": "Feature",
        "id": "priv_hos.35",
        "geometry": {
          "type": "Point",
          "coordinates": [664299.589406758, 1517853.50427958]
        },
        "geometry_name": "the_geom",
        "properties": {
          "name": "โรงพยาบาลมเหสักข์",
          "address": "46/7-9 ซอยปราโมทย์ ถนนมเสักข์ แขวงสุริยวงศ์ บางรัก กรุงเทพฯ",
          "dcode": "1004",
          "tel": "02-6357123",
          "num_bed": 132
        }
      },
      {
        "type": "Feature",
        "id": "priv_hos.36",
        "geometry": {
          "type": "Point",
          "coordinates": [658411.481348129, 1517811.66871106]
        },
        "geometry_name": "the_geom",
        "properties": {
          "name": "โรงพยาบาลบางไผ่",
          "address": "62 กิ่งเกษม เพชรเกษม แขวงปากคลองภาษีเจริญ กรุงเทพฯ",
          "dcode": "1022",
          "tel": "02-457-00086",
          "num_bed": 100
        }
      },
      {
        "type": "Feature",
        "id": "priv_hos.37",
        "geometry": {
          "type": "Point",
          "coordinates": [665985.280815905, 1517831.74603149]
        },
        "geometry_name": "the_geom",
        "properties": {
          "name": "โรงพยาบาลบี เอ็น เอช",
          "address": "9/1คอนแวนต์ สีลม บางรัก กรุงเทพฯ10500",
          "dcode": "1004",
          "tel": "02-686-2700",
          "num_bed": 86
        }
      },
      {
        "type": "Feature",
        "id": "priv_hos.38",
        "geometry": {
          "type": "Point",
          "coordinates": [671672.145034993, 1517177.33015791]
        },
        "geometry_name": "the_geom",
        "properties": {
          "name": "โรงพยาบาลสุขุมวิท",
          "address": "1411 ถนนสุขุมวิท แขวงพระโขนงเหนือ เขตวัฒนา กรุงเทพฯ10110",
          "dcode": "1039",
          "tel": "02-391-0011",
          "num_bed": 110
        }
      },
      {
        "type": "Feature",
        "id": "priv_hos.39",
        "geometry": {
          "type": "Point",
          "coordinates": [659476.678212186, 1517251.53932364]
        },
        "geometry_name": "the_geom",
        "properties": {
          "name": "โรงพยาบาลเยาวรักษ์",
          "address": "1363,1375 ถนนเทอดไท ตลาดพลู แขวงธนบุรี กรุงเทพฯ 10600",
          "dcode": "1015",
          "tel": "02-465-5620-2",
          "num_bed": 31
        }
      },
      {
        "type": "Feature",
        "id": "priv_hos.40",
        "geometry": {
          "type": "Point",
          "coordinates": [664924.473374886, 1517215.8821897]
        },
        "geometry_name": "the_geom",
        "properties": {
          "name": "โรงพยาบาลเซ็นต์หลุยส์",
          "address": "27 ถนนสาทรใต้ แขวงยานนาวา สาทร กรุงเทพฯ10120",
          "dcode": "1028",
          "tel": "026755000",
          "num_bed": 412
        }
      },
      {
        "type": "Feature",
        "id": "priv_hos.41",
        "geometry": {
          "type": "Point",
          "coordinates": [670479.683016982, 1516729.42646027]
        },
        "geometry_name": "the_geom",
        "properties": {
          "name": "โรงพยาบาลเทพธารินทร์",
          "address": "3850 ถนนพระราม 4 พระโขนง แขวงคลองเตย กรุงเทพฯ10110",
          "dcode": "1033",
          "tel": "02-240-2727",
          "num_bed": 80
        }
      },
      {
        "type": "Feature",
        "id": "priv_hos.42",
        "geometry": {
          "type": "Point",
          "coordinates": [661066.919389397, 1516615.93880079]
        },
        "geometry_name": "the_geom",
        "properties": {
          "name": "โรงพยาบาลกรุงธน 1",
          "address": "337 สมเด็จพระเจ้าตากสิน แขวงสำเหร่ ธนบุรี กรุงเทพฯ10600",
          "dcode": "1015",
          "tel": "02-438-0040-5",
          "num_bed": 150
        }
      },
      {
        "type": "Feature",
        "id": "priv_hos.43",
        "geometry": {
          "type": "Point",
          "coordinates": [651255.798676869, 1516151.79498857]
        },
        "geometry_name": "the_geom",
        "properties": {
          "name": "โรงพยาบาลเกษมราษฏร์บางแค",
          "address": "586,588 ถนนเพชรเกษม บางแคเหนือ แขวงบางแค กรุงเทพฯ10160",
          "dcode": "1040",
          "tel": "02-804-8959",
          "num_bed": 317
        }
      },
      {
        "type": "Feature",
        "id": "priv_hos.44",
        "geometry": {
          "type": "Point",
          "coordinates": [653508.75965197, 1516205.95322757]
        },
        "geometry_name": "the_geom",
        "properties": {
          "name": "สถานพยาบาลเพชรเกษม - บางแค",
          "address": "80/57 หมู่4 เพชรเกษม 39/2 เพชรเกษม บางแค กรุงเทพฯ10160",
          "dcode": "1040",
          "tel": "02-801-1199",
          "num_bed": 30
        }
      },
      {
        "type": "Feature",
        "id": "priv_hos.45",
        "geometry": {
          "type": "Point",
          "coordinates": [662100.135774371, 1512699.83184349]
        },
        "geometry_name": "the_geom",
        "properties": {
          "name": "โรงพยาบาลบางปะกอก 1",
          "address": "2 สุขสวัสดิ์ 25/1 บางปะกอก แขวงราษฎร์บูรณะ กรุงเทพฯ10140",
          "dcode": "1024",
          "tel": "02-872-1111",
          "num_bed": 120
        }
      },
      {
        "type": "Feature",
        "id": "priv_hos.46",
        "geometry": {
          "type": "Point",
          "coordinates": [662515.158418308, 1512613.91564477]
        },
        "geometry_name": "the_geom",
        "properties": {
          "name": "โรงพยาบาลราษฏร์บูรณะ",
          "address": "377 ราษฎร์บูรณะ บางปะกอก  แขวงราษฎร์บูรณะ กรุงเทพฯ10140",
          "dcode": "1024",
          "tel": "02-427-0175-9",
          "num_bed": 124
        }
      },
      {
        "type": "Feature",
        "id": "priv_hos.47",
        "geometry": {
          "type": "Point",
          "coordinates": [657538.969279676, 1511893.91530525]
        },
        "geometry_name": "the_geom",
        "properties": {
          "name": "โรงพยาบาลบางมด",
          "address": "747 พระรามที่ 2 บางมด จอมทอง กรุงเทพฯ10150",
          "dcode": "1035",
          "tel": "02-867-0606",
          "num_bed": 203
        }
      },
      {
        "type": "Feature",
        "id": "priv_hos.48",
        "geometry": {
          "type": "Point",
          "coordinates": [655094.368478258, 1510653.93529203]
        },
        "geometry_name": "the_geom",
        "properties": {
          "name": "โรงพยาบาลนครธน",
          "address": "1 พระรามที่ 2 ซอย 56 แสมดำ แขวงบางขุนเทียน กรุงเทพฯ1150",
          "dcode": "1021",
          "tel": "02-416-5454",
          "num_bed": 150
        }
      },
      {
        "type": "Feature",
        "id": "priv_hos.49",
        "geometry": {
          "type": "Point",
          "coordinates": [678049.749466253, 1510127.65466368]
        },
        "geometry_name": "the_geom",
        "properties": {
          "name": "โรงพยาบาลศิครินทร์",
          "address": "4/29 หมู่ 10 ศรีครินทร์ แขวงบางนา กรุงเทพฯ10260",
          "dcode": "1047",
          "tel": "02-383-4400",
          "num_bed": 216
        }
      },
      {
        "type": "Feature",
        "id": "priv_hos.50",
        "geometry": {
          "type": "Point",
          "coordinates": [653818.117451115, 1509665.80701515]
        },
        "geometry_name": "the_geom",
        "properties": {
          "name": "โรงพยาบาลพระราม 2",
          "address": "78/1หมู่6 ถนนพระราม 2 แสมดำ บางขุนเทียน กรุงเทพฯ 10150",
          "dcode": "1021",
          "tel": "02-451-4920-30",
          "num_bed": 109
        }
      },
      {
        "type": "Feature",
        "id": "priv_hos.51",
        "geometry": {
          "type": "Point",
          "coordinates": [662065.737691243, 1512576.35180159]
        },
        "geometry_name": "the_geom",
        "properties": {
          "name": "โรงพยาบาลนวมินทร์ 2",
          "address": "599 หมู่ 4 ถนนสุขสวัสดิ์ บางปะกอก แขวงราษฎร์บูรณะ กรุงเทพฯ10140",
          "dcode": "1024",
          "tel": "02-427-1616",
          "num_bed": 100
        }
      },
      {
        "type": "Feature",
        "id": "priv_hos.52",
        "geometry": {
          "type": "Point",
          "coordinates": [673778.867744882, 1512569.66438304]
        },
        "geometry_name": "the_geom",
        "properties": {
          "name": "สถานพยาบาลผู้ป่วยเรื้องรังกล้วยน้ำไท2",
          "address": "27 (ซอยโสภณ) สุขุมวิท 68 บางนา กรุงเทพฯ10260",
          "dcode": "1047",
          "tel": "02-769-2000",
          "num_bed": 80
        }
      },
      {
        "type": "Feature",
        "id": "priv_hos.53",
        "geometry": {
          "type": "Point",
          "coordinates": [681024.556683854, 1523581.16497421]
        },
        "geometry_name": "the_geom",
        "properties": {
          "name": "โรงพยาบาลเกษมราษฎร์ สุขาภิบาล 3",
          "address": "88,90,92 ถนนรามคำแหง แขวงสะพานสูง กรุงเทพฯ10240",
          "dcode": "1044",
          "tel": "02729300",
          "num_bed": 100
        }
      },
      {
        "type": "Feature",
        "id": "priv_hos.54",
        "geometry": {
          "type": "Point",
          "coordinates": [666310.607600095, 1529673.06797931]
        },
        "geometry_name": "the_geom",
        "properties": {
          "name": "โรงพยาบาลเกษมราษฎร์ประชาชื่น",
          "address": "950 ถนนประชาชื่น วงศ์สว่าง บางซื่อ กรุงเทพฯ 10800",
          "dcode": "1029",
          "tel": "02-910-1600",
          "num_bed": 373
        }
      },
      {
        "type": "Feature",
        "id": "priv_hos.55",
        "geometry": {
          "type": "Point",
          "coordinates": [670517.610319089, 1525047.51390097]
        },
        "geometry_name": "the_geom",
        "properties": {
          "name": "โรงพยาบาลโกลเด้นเยียร์",
          "address": "55/3 ถนนสุทธิสาร สามเสนนอก ห้วยขวาง กรุงเทพฯ10310",
          "dcode": "1017",
          "tel": "026930733-40",
          "num_bed": 60
        }
      },
      {
        "type": "Feature",
        "id": "priv_hos.56",
        "geometry": {
          "type": "Point",
          "coordinates": [667016.922555065, 1520302.38441731]
        },
        "geometry_name": "the_geom",
        "properties": {
          "name": "โรงพยาบาลเจตนิน",
          "address": "5 ชิดลม เพลินจิต ลุมพินี แขวงปทุมวัน กรุงเทพฯ",
          "dcode": "1007",
          "tel": "02-655-5300",
          "num_bed": 20
        }
      },
      {
        "type": "Feature",
        "id": "priv_hos.57",
        "geometry": {
          "type": "Point",
          "coordinates": [669613.682195582, 1527192.13270583]
        },
        "geometry_name": "the_geom",
        "properties": {
          "name": "สถานพยาบาลเดอะซีเนียร์",
          "address": "99/49 ถนนลาดพร้าว 9 แขวงลาดยาว เขตจตุจักร กรุงเทพฯ10900",
          "dcode": "1030",
          "tel": "02-511-0303",
          "num_bed": 26
        }
      },
      {
        "type": "Feature",
        "id": "priv_hos.58",
        "geometry": {
          "type": "Point",
          "coordinates": [658950.14651924, 1524712.88802474]
        },
        "geometry_name": "the_geom",
        "properties": {
          "name": "โรงพยาบาลตา หู คอ จมูก",
          "address": "585-585/1 ถนนสิรินธร บางบำหรุ แขวงบางพลัด กรุงเทพฯ10700",
          "dcode": "1025",
          "tel": "02-886-6600",
          "num_bed": 46
        }
      },
      {
        "type": "Feature",
        "id": "priv_hos.59",
        "geometry": {
          "type": "Point",
          "coordinates": [686096.412756372, 1527533.89584672]
        },
        "geometry_name": "the_geom",
        "properties": {
          "name": "โรงพยาบาลนวมินทร์",
          "address": "559 หมู่13 ถนน สีหบุรากิจ มีนบุรี แขวงมีนบุรี กรุงเทพฯ",
          "dcode": "1010",
          "tel": "02-9185080",
          "num_bed": 169
        }
      },
      {
        "type": "Feature",
        "id": "priv_hos.60",
        "geometry": {
          "type": "Point",
          "coordinates": [677195.852875576, 1511629.1682351]
        },
        "geometry_name": "the_geom",
        "properties": {
          "name": "โรงพยาบาลไทยนครินทร์",
          "address": "345 หมู่11 บางนา-ตราด แขวงบางนา กรุงเทพฯ10260",
          "dcode": "1047",
          "tel": "02-361-2828",
          "num_bed": 190
        }
      },
      {
        "type": "Feature",
        "id": "priv_hos.61",
        "geometry": {
          "type": "Point",
          "coordinates": [676897.76130582, 1511488.47273039]
        },
        "geometry_name": "the_geom",
        "properties": {
          "name": "โรงพยาบาลบางนา 1",
          "address": "1302 บางนา-ตราด แขวงบางนา กรุงเทพฯ10260",
          "dcode": "1047",
          "tel": "02-7259595",
          "num_bed": 62
        }
      },
      {
        "type": "Feature",
        "id": "priv_hos.62",
        "geometry": {
          "type": "Point",
          "coordinates": [673820.898212097, 1521185.43092674]
        },
        "geometry_name": "the_geom",
        "properties": {
          "name": "โรงพยาบาลนวศรีเนอสซิ่งโฮม",
          "address": "65/17 รามคำแหง 21 รามคำแหง วังทองหลาง แขวงวังทองหลาง กรุงเทพฯ10310",
          "dcode": "1045",
          "tel": "02-7184866-7",
          "num_bed": 50
        }
      },
      {
        "type": "Feature",
        "id": "priv_hos.63",
        "geometry": {
          "type": "Point",
          "coordinates": [658953.339789702, 1514933.07134351]
        },
        "geometry_name": "the_geom",
        "properties": {
          "name": "สถานพยาบาลบางขุนเทียน",
          "address": "124/74-75 ถนนดาวคะนอง -จอมทอง แขวงบางค้อ จอมทอง กรุงเทพฯ",
          "dcode": "1035",
          "tel": "02-477-2290-3",
          "num_bed": 15
        }
      },
      {
        "type": "Feature",
        "id": "priv_hos.64",
        "geometry": {
          "type": "Point",
          "coordinates": [658307.578746069, 1517567.63267421]
        },
        "geometry_name": "the_geom",
        "properties": {
          "name": "โรงพยาบาลพญาไท 3",
          "address": "111 ถนนเพชรเกษม แขวงปากคลองภาษีเจริญ กรุงเทพฯ",
          "dcode": "1022",
          "tel": "02-4671111",
          "num_bed": 230
        }
      },
      {
        "type": "Feature",
        "id": "priv_hos.65",
        "geometry": {
          "type": "Point",
          "coordinates": [663379.971129111, 1526074.21189917]
        },
        "geometry_name": "the_geom",
        "properties": {
          "name": "โรงพยาบาลยันฮี",
          "address": "454 ถนนจรัญสนิทวงศ์ บางอ้อ แขวง บางพลัด กรุงเทพฯ10700",
          "dcode": "1025",
          "tel": "02-879-0300",
          "num_bed": 400
        }
      },
      {
        "type": "Feature",
        "id": "priv_hos.66",
        "geometry": {
          "type": "Point",
          "coordinates": [677147.990142875, 1520551.8256203]
        },
        "geometry_name": "the_geom",
        "properties": {
          "name": "โรงพยาบาลสมิติเวชศรีนครินทร์",
          "address": "488 ถนนศรีนครินทร์ แขวงสวนหลวง เขตสวนหลวง กรุงเทพฯ10250",
          "dcode": "1034",
          "tel": "02-378-9000",
          "num_bed": 154
        }
      },
      {
        "type": "Feature",
        "id": "priv_hos.67",
        "geometry": {
          "type": "Point",
          "coordinates": [675505.196709703, 1542039.34592133]
        },
        "geometry_name": "the_geom",
        "properties": {
          "name": "โรงพยาบาลบี.แคร์.เมดิคอลเซ็นเตอร์",
          "address": "29 หมู่ 6 พหลโยธิน แขวงสายไหม เขตสายไหม กรุงเทพฯ10220",
          "dcode": "1042",
          "tel": "02-523-3359-71",
          "num_bed": 136
        }
      },
      {
        "type": "Feature",
        "id": "priv_hos.68",
        "geometry": {
          "type": "Point",
          "coordinates": [659767.16065621, 1516935.38518165]
        },
        "geometry_name": "the_geom",
        "properties": {
          "name": "โรงพยาบาลรัชดา-ท่าพระ",
          "address": "6-6/4 ถนนรัชดาภิเษก ตากสินท-ท่าพระ แขวงตลาดพลู ธนบุรี กรุงเทพฯ10600",
          "dcode": "1015",
          "tel": "02-466-0205",
          "num_bed": 26
        }
      },
      {
        "type": "Feature",
        "id": "priv_hos.69",
        "geometry": {
          "type": "Point",
          "coordinates": [674036.377662692, 1521546.08147534]
        },
        "geometry_name": "the_geom",
        "properties": {
          "name": "สถานพยาบาลศุขเวชเนอสซิ่งโฮม (ราม 21)",
          "address": "20/6 นวศรี 2 รามคำแหง 21 แขวงพลับพลา กรุงเทพฯ",
          "dcode": "1045",
          "tel": "02-319-5865",
          "num_bed": 40
        }
      },
      {
        "type": "Feature",
        "id": "priv_hos.70",
        "geometry": {
          "type": "Point",
          "coordinates": [671513.569956153, 1526797.1153127]
        },
        "geometry_name": "the_geom",
        "properties": {
          "name": "สถานพยาบาลภัสรพิบาลเนอสซิ่งโฮม",
          "address": "185 ซอยจักกริช4 ลาดพร้าว 71 แขวงวังทองหลาง เขตวังทองหลาง กรุงเทพฯ10310",
          "dcode": "1030",
          "tel": "02-718-48667",
          "num_bed": 30
        }
      },
      {
        "type": "Feature",
        "id": "priv_hos.71",
        "geometry": {
          "type": "Point",
          "coordinates": [671088.078164782, 1529024.18694674]
        },
        "geometry_name": "the_geom",
        "properties": {
          "name": "สถานพยาบาล เดอะซีเนียร์ 3",
          "address": "เฉลิมสุข จันทรเกษม จตุจักร กรุงเทพฯ10900",
          "dcode": "1030",
          "tel": "02-511-0303",
          "num_bed": 119
        }
      },
      {
        "type": "Feature",
        "id": "priv_hos.72",
        "geometry": {
          "type": "Point",
          "coordinates": [659471.319947938, 1513004.11254763]
        },
        "geometry_name": "the_geom",
        "properties": {
          "name": "โรงพยาบาลบางปะกอก 9 อินเตอร์เนชั่นแนล",
          "address": "362 พระราม 2 แขวงบางมด จอมทอง กรุงเทพฯ10150",
          "dcode": "1035",
          "tel": "02-2877-1111",
          "num_bed": 200
        }
      },
      {
        "type": "Feature",
        "id": "priv_hos.73",
        "geometry": {
          "type": "Point",
          "coordinates": [663228.999775262, 1513947.55637726]
        },
        "geometry_name": "the_geom",
        "properties": {
          "name": "สถานพยาบาลพระราม 3",
          "address": "168 ถนนเจริญราษฎร์ บางคอแหลม บางคอแหลม กรุงเทพฯ 10120",
          "dcode": "1031",
          "tel": "02-689-8888",
          "num_bed": 10
        }
      },
      {
        "type": "Feature",
        "id": "priv_hos.74",
        "geometry": {
          "type": "Point",
          "coordinates": [651419.558605499, 1510470.40249903]
        },
        "geometry_name": "the_geom",
        "properties": {
          "name": "โรงพยาบาลบางปะกอก 8",
          "address": "เอกชัย บางบอน  บางบอน กรุงเทพฯ 10150",
          "dcode": "1050",
          "tel": "02-8944-4111",
          "num_bed": 35
        }
      },
      {
        "type": "Feature",
        "id": "priv_hos.75",
        "geometry": {
          "type": "Point",
          "coordinates": [651860.251125229, 1510805.24617869]
        },
        "geometry_name": "the_geom",
        "properties": {
          "name": "สถานพยาบาลเวชกรรมบางปะกอก 2",
          "address": "38/7-8เอกชัย บางบอน กรุงเทพฯ 10150",
          "dcode": "1050",
          "tel": "02-899-0130",
          "num_bed": 10
        }
      },
      {
        "type": "Feature",
        "id": "priv_hos.76",
        "geometry": {
          "type": "Point",
          "coordinates": [674221.202641115, 1524433.99421457]
        },
        "geometry_name": "the_geom",
        "properties": {
          "name": "โรงพยาบาลเฉพาะทางศัลยกรรมตกแต่งกมล",
          "address": "1223 ลาดพร้าว 94 พลับพลา แขวงพลับพลา กรุงเทพฯ",
          "dcode": "1045",
          "tel": "02 -559-0151-5",
          "num_bed": 31
        }
      },
      {
        "type": "Feature",
        "id": "priv_hos.77",
        "geometry": {
          "type": "Point",
          "coordinates": [681966.851120035, 1539952.55357812]
        },
        "geometry_name": "the_geom",
        "properties": {
          "name": "โรงพยาบาลสายไหม",
          "address": "91หมู่1 ถนนเฉลิมพงษ์ แขวงสายไหม เขตสายไหม กรุงเทพฯ10220",
          "dcode": "1042",
          "tel": "02991-8999",
          "num_bed": 100
        }
      },
      {
        "type": "Feature",
        "id": "priv_hos.78",
        "geometry": {
          "type": "Point",
          "coordinates": [646192.809706797, 1515655.45738236]
        },
        "geometry_name": "the_geom",
        "properties": {
          "name": "โรงพยาบาลวิชัยเวช อินเตอร์เนชั่นแนล หนองแขม",
          "address": "456,456/1-8 เพชรเกษม หนองค้างพลู หนองแขม กรุงเทพฯ10160",
          "dcode": "1023",
          "tel": "028074044",
          "num_bed": 200
        }
      },
      {
        "type": "Feature",
        "id": "priv_hos.79",
        "geometry": {
          "type": "Point",
          "coordinates": [669098.070217265, 1520661.48628684]
        },
        "geometry_name": "the_geom",
        "properties": {
          "name": "โรงพยาบาลผิวหนัง อโศก",
          "address": "18 อโศกดินแดง บางกะปิเ ห้วยขวาง กรุงเทพฯ10310",
          "dcode": "1017",
          "tel": "-",
          "num_bed": 32
        }
      },
      {
        "type": "Feature",
        "id": "priv_hos.80",
        "geometry": {
          "type": "Point",
          "coordinates": [671035.852681379, 1521309.44853617]
        },
        "geometry_name": "the_geom",
        "properties": {
          "name": "โรงพยาบาลวัฒโนสถ",
          "address": "85ศูนย์วิจัย  เพชรบุรีตัดใหม่ บางกะปิ ห้วยขวาง กรุงเทพฯ 10320",
          "dcode": "1017",
          "tel": "02310-3000",
          "num_bed": 49
        }
      },
      {
        "type": "Feature",
        "id": "priv_hos.81",
        "geometry": {
          "type": "Point",
          "coordinates": [671248.759880032, 1520382.24442529]
        },
        "geometry_name": "the_geom",
        "properties": {
          "name": "สถานพยาบาลเวชกรรม กรุงเทพอินเตอร์เนชั่นแนล",
          "address": "ศูนย์วิจัย 7 เพชรบุรีตัดใหม่ บางกะปิ ห้วยขวาง กรุงเทพฯ",
          "dcode": "1017",
          "tel": "023103227",
          "num_bed": 87
        }
      },
      {
        "type": "Feature",
        "id": "priv_hos.82",
        "geometry": {
          "type": "Point",
          "coordinates": [675552.512210138, 1523828.43821766]
        },
        "geometry_name": "the_geom",
        "properties": {
          "name": "โรงพยาบาลลาดพร้าว",
          "address": "2699 ลาดพร้าว วังทองหลาง แขวงวังทองหลาง กรุงเทพฯ10310",
          "dcode": "1045",
          "tel": "02-530-2556-69",
          "num_bed": 180
        }
      },
      {
        "type": "Feature",
        "id": "priv_hos.83",
        "geometry": {
          "type": "Point",
          "coordinates": [665803.587299653, 1524295.02072166]
        },
        "geometry_name": "the_geom",
        "properties": {
          "name": "โรงพยาบาลการแพทย์วิชัยยุทธ",
          "address": "53ซอยเศรษฐศิริ สามเสนใน แขวงพญาไท กรุงเทพฯ 10400",
          "dcode": "1014",
          "tel": "02-265-7777",
          "num_bed": 114
        }
      },
      {
        "type": "Feature",
        "id": "priv_hos.84",
        "geometry": {
          "type": "Point",
          "coordinates": [654573.438735524, 1512588.84571357]
        },
        "geometry_name": "the_geom",
        "properties": {
          "name": "สถานพยาบาลบางมด 3",
          "address": "หมู่ 8 ถนนเอกชัย บางบอน กรุงเทพฯ",
          "dcode": "1050",
          "tel": "024168561-2",
          "num_bed": 18
        }
      },
      {
        "type": "Feature",
        "id": "priv_hos.85",
        "geometry": {
          "type": "Point",
          "coordinates": [673391.885601842, 1511699.20132669]
        },
        "geometry_name": "the_geom",
        "properties": {
          "name": "โรงพยาบาลมนารมย์",
          "address": "32 สุขุมวิท 70/3 บางนา เขตบางนา กรุงเทพฯ",
          "dcode": "1047",
          "tel": "027259595",
          "num_bed": 32
        }
      },
      {
        "type": "Feature",
        "id": "priv_hos.86",
        "geometry": {
          "type": "Point",
          "coordinates": [670177.02384006, 1529156.56836584]
        },
        "geometry_name": "the_geom",
        "properties": {
          "name": "สถานพยาบาลผู้ป่วยเรื้อรังเดอะซีเนียร์ 3",
          "address": "131 ซอยเฉลิมสุข แขวงจันทรเกษม กรุงเทพฯ",
          "dcode": "1030",
          "tel": "029300020",
          "num_bed": 30
        }
      },
      {
        "type": "Feature",
        "id": "priv_hos.87",
        "geometry": {
          "type": "Point",
          "coordinates": [658892.782307617, 1521216.07284765]
        },
        "geometry_name": "the_geom",
        "properties": {
          "name": "โรงพยาบาลศรีวิชัย",
          "address": "240/2-7 ถนนจรัลสนิทวงศ์ แขวงบ้านช่างหล่อ กรุงเทพฯ",
          "dcode": "1020",
          "tel": "024120055",
          "num_bed": 59
        }
      },
      {
        "type": "Feature",
        "id": "priv_hos.88",
        "geometry": {
          "type": "Point",
          "coordinates": [666811.380444968, 1523854.14525438]
        },
        "geometry_name": "the_geom",
        "properties": {
          "name": "สถานพยาบาลมะเร็งกรุงเทพ",
          "address": "44 ซอยอารีย์ ถนนพหลโยธิน แขวงสามเสนใน กรุงเทพฯ",
          "dcode": "1014",
          "tel": "02785716-21",
          "num_bed": 30
        }
      },
      {
        "type": "Feature",
        "id": "priv_hos.89",
        "geometry": {
          "type": "Point",
          "coordinates": [671691.416381208, 1516667.25589859]
        },
        "geometry_name": "the_geom",
        "properties": {
          "name": "โรงพยาบาลกล้วยน้ำไท",
          "address": "80 ซอยกล้วยน้ำไท 2 ถนนสุขุมวิท แขวงพระโขนง เขตคลองเตย กรุงเทพฯ",
          "dcode": "1033",
          "tel": "023812006-20",
          "num_bed": 80
        }
      },
      {
        "type": "Feature",
        "id": "priv_hos.90",
        "geometry": {
          "type": "Point",
          "coordinates": [656202.454964942, 1519367.30370906]
        },
        "geometry_name": "the_geom",
        "properties": {
          "name": "สถานพยาบาลเวชกรรมเฉพาะทางอาชีวเวชศาสตร์อินเตอรเมด",
          "address": "422 ถนนจรัลสนิทวงศ์ แขวงบางแวก เขตบางแวก ภาษีเจริญ กรุงเทพฯ",
          "dcode": "1022",
          "tel": "028650044-8",
          "num_bed": 3
        }
      },
      {
        "type": "Feature",
        "id": "priv_hos.91",
        "geometry": {
          "type": "Point",
          "coordinates": [685596.07885993, 1527504.44913856]
        },
        "geometry_name": "the_geom",
        "properties": {
          "name": "โรงพยาบาลเสรีรักษ์",
          "address": "44 ถนนเสรีไทย แขวงมีนบุรี เขตมีนบุรี กรุงเทพฯ",
          "dcode": "1010",
          "tel": "029189888",
          "num_bed": 71
        }
      },
      {
        "type": "Feature",
        "id": "priv_hos.92",
        "geometry": {
          "type": "Point",
          "coordinates": [662341.001578836, 1512396.39432587]
        },
        "geometry_name": "the_geom",
        "properties": {
          "name": "โรงพยาบาลกรุงธน 2",
          "address": "216/6 หมู่ 4 แขวงบางปะกอก เขตราษฎร์บูรณะ กรุงเทพฯ",
          "dcode": "1024",
          "tel": "024280367",
          "num_bed": 100
        }
      },
      {
        "type": "Feature",
        "id": "priv_hos.93",
        "geometry": {
          "type": "Point",
          "coordinates": [677896.286045468, 1519008.692078]
        },
        "geometry_name": "the_geom",
        "properties": {
          "name": "โรงพยาบาลวิภาราม",
          "address": "2677 ถนนพัฒนาการ แขวงสวนหลวง เขตสวนหลวง กรุงเทพฯ",
          "dcode": "1034",
          "tel": "027222500-24",
          "num_bed": 150
        }
      },
      {
        "type": "Feature",
        "id": "priv_hos.94",
        "geometry": {
          "type": "Point",
          "coordinates": [668186.367365762, 1532844.4273898]
        },
        "geometry_name": "the_geom",
        "properties": {
          "name": "สถานพยาบาลชินเขตงามวงศ์วาน",
          "address": "83-125-126 ถนนงามวงศ์วาน ทุ่งสองห้อง หลักสี่ กรุงเทพฯ",
          "dcode": "1041",
          "tel": "025807426-9",
          "num_bed": 26
        }
      },
      {
        "type": "Feature",
        "id": "priv_hos.95",
        "geometry": {
          "type": "Point",
          "coordinates": [671391.562630396, 1520152.22297029]
        },
        "geometry_name": "the_geom",
        "properties": {
          "name": "โรงพยาบาลหัวใจกรุงเทพฯ",
          "address": "ถนนเพชรบุรีตัดใหม่ บางกะปิ ห้วยขวาง กรุงเทพฯ",
          "dcode": "1017",
          "tel": "02313000",
          "num_bed": 56
        }
      },
      {
        "type": "Feature",
        "id": "priv_hos.96",
        "geometry": {
          "type": "Point",
          "coordinates": [679140.217075309, 1529028.98175217]
        },
        "geometry_name": "the_geom",
        "properties": {
          "name": "โรงพยาบาลเปาโล เมโมเรียบ นวมินทร์",
          "address": "44/505 นวมินทร์ 86-88 แขวงนวลจันทร์ บึงกุ่ม กรุงเทพฯ",
          "dcode": "1027",
          "tel": "02944-8015-20",
          "num_bed": 140
        }
      },
      {
        "type": "Feature",
        "id": "priv_hos.97",
        "geometry": {
          "type": "Point",
          "coordinates": [665671.678133951, 1524296.86343555]
        },
        "geometry_name": "the_geom",
        "properties": {
          "name": "โรงพยาบาลวิชัยยุทธ",
          "address": "71/3 ถนนเศรษฐศิริ สามเสนใน แขวงพญาไท กรุงเทพฯ",
          "dcode": "1014",
          "tel": "026186200",
          "num_bed": 236
        }
      },
      {
        "type": "Feature",
        "id": "priv_hos.98",
        "geometry": {
          "type": "Point",
          "coordinates": [686214.617632288, 1527339.24376397]
        },
        "geometry_name": "the_geom",
        "properties": {
          "name": "โรงพยาบาลนวมินทร์ 9",
          "address": "47/94 ถนนสีหบุรานุกิจ แขวงมีนบุรี เขตมีนบุรี",
          "dcode": "1010",
          "tel": "025181818",
          "num_bed": 121
        }
      }
    ],
    "crs": {
      "type": "name",
      "properties": {
        "name": "urn:ogc:def:crs:EPSG::32647"
      }
    }
  }